City_ID,City,Country,Date,Lat,Lng,Max Temp,Humidity,Cloudiness,Wind Speed,Current Description,Rain inches (last 3hrs),Snow inches (last 3hrs)
0,Winslow,US,2020-04-19 19:49:56,35.02,-110.7,66.2,15,1,12.91,clear sky,0.0,0.0
1,Hilo,US,2020-04-19 19:56:18,19.73,-155.09,78.8,57,75,3.36,broken clouds,0.0,0.0
2,Provideniya,RU,2020-04-19 19:54:23,64.38,-173.3,20.86,95,100,15.19,light snow,0.0,0.56
3,Chuy,UY,2020-04-19 19:57:14,-33.7,-53.46,67.73,78,4,8.21,clear sky,0.0,0.0
4,Uthal,PK,2020-04-19 19:59:32,25.81,66.62,77.49,77,93,2.8,overcast clouds,0.0,0.0
5,Raudeberg,NO,2020-04-19 19:59:32,61.99,5.14,46.4,70,0,9.17,clear sky,0.0,0.0
6,Busselton,AU,2020-04-19 19:56:17,-33.65,115.33,55.99,59,79,17.05,broken clouds,0.0,0.0
7,Bambous Virieux,MU,2020-04-19 19:59:33,-20.34,57.76,77.0,78,40,10.29,scattered clouds,0.0,0.0
8,Caravelas,BR,2020-04-19 19:59:33,-17.71,-39.25,76.1,76,46,17.65,scattered clouds,0.0,0.0
9,De-Kastri,RU,2020-04-19 19:59:33,51.47,140.78,34.39,89,100,6.53,overcast clouds,0.0,0.0
10,Hermanus,ZA,2020-04-19 19:59:34,-34.42,19.23,61.0,94,73,12.01,broken clouds,0.0,0.0
11,Ushuaia,AR,2020-04-19 19:56:10,-54.8,-68.3,44.6,75,75,28.86,drizzle,0.0,0.0
12,Faya,SA,2020-04-19 19:59:34,18.39,42.45,66.2,68,87,6.93,overcast clouds,0.0,0.0
13,Albany,US,2020-04-19 19:56:36,42.6,-73.97,64.99,26,81,1.99,broken clouds,0.0,0.0
14,Vaini,TO,2020-04-19 19:59:35,-21.2,-175.2,78.8,83,20,8.05,few clouds,0.0,0.0
15,Punta Arenas,CL,2020-04-19 19:59:36,-53.15,-70.92,44.6,65,40,34.45,scattered clouds,0.0,0.0
16,Jamestown,US,2020-04-19 19:59:36,42.1,-79.24,55.4,47,90,12.75,overcast clouds,0.0,0.0
17,Arraial Do Cabo,BR,2020-04-19 19:59:36,-22.97,-42.03,77.0,65,40,8.05,scattered clouds,0.0,0.0
18,Pimentel,PE,2020-04-19 19:59:36,-6.84,-79.93,82.4,51,4,25.28,clear sky,0.0,0.0
19,Tezu,IN,2020-04-19 19:59:36,27.92,96.17,65.35,70,100,4.23,light rain,2.45,0.0
20,Zaykovo,RU,2020-04-19 19:59:36,57.56,62.76,38.43,72,3,3.83,clear sky,0.0,0.0
21,Mataura,NZ,2020-04-19 19:59:37,-46.19,168.86,44.01,81,96,5.99,overcast clouds,0.0,0.0
22,Puerto Del Rosario,ES,2020-04-19 19:59:37,28.5,-13.86,68.0,64,20,14.99,few clouds,0.0,0.0
23,Kyabe,TD,2020-04-19 19:59:37,9.45,18.94,91.85,19,63,4.56,broken clouds,0.0,0.0
24,Kohima,IN,2020-04-19 19:59:37,25.67,94.12,55.96,56,52,0.34,light rain,0.36,0.0
25,Bluff,NZ,2020-04-19 19:59:38,-46.6,168.33,44.01,81,85,5.99,light rain,0.13,0.0
26,Kruisfontein,ZA,2020-04-19 19:59:39,-34.0,24.73,68.23,47,42,8.55,scattered clouds,0.0,0.0
27,Leh,IN,2020-04-19 19:55:17,34.17,77.58,32.27,18,99,1.41,overcast clouds,0.0,0.0
28,Los Llanos De Aridane,ES,2020-04-19 19:59:39,28.66,-17.92,66.2,72,20,14.99,few clouds,0.0,0.0
29,Mason City,US,2020-04-19 19:59:10,43.15,-93.2,53.01,32,1,13.87,clear sky,0.0,0.0
30,Shelburne,CA,2020-04-19 19:59:40,44.08,-80.2,46.4,81,75,17.22,broken clouds,0.0,0.0
31,Salalah,OM,2020-04-19 19:57:03,17.02,54.09,82.4,69,20,5.82,few clouds,0.0,0.0
32,Warri,NG,2020-04-19 19:59:40,5.52,5.75,78.01,89,100,1.19,overcast clouds,0.0,0.0
33,Hithadhoo,MV,2020-04-19 19:59:40,-0.6,73.08,84.67,76,43,10.42,scattered clouds,0.0,0.0
34,Port Alfred,ZA,2020-04-19 19:59:40,-33.59,26.89,79.66,45,26,12.66,scattered clouds,0.0,0.0
35,Kupang,ID,2020-04-19 19:59:41,-10.17,123.58,80.6,74,41,10.4,scattered clouds,0.0,0.0
36,Vila Velha,BR,2020-04-19 19:58:31,-20.33,-40.29,78.01,69,40,14.99,scattered clouds,0.0,0.0
37,Torres,BR,2020-04-19 19:59:41,-29.34,-49.73,68.13,79,1,9.46,clear sky,0.0,0.0
38,Cabo San Lucas,MX,2020-04-19 19:55:11,22.89,-109.91,79.0,50,5,11.41,clear sky,0.0,0.0
39,Henties Bay,NA,2020-04-19 19:59:41,-22.12,14.28,57.99,93,0,1.99,clear sky,0.0,0.0
40,Rikitea,PF,2020-04-19 19:59:41,-23.12,-134.97,76.87,68,100,6.96,overcast clouds,0.0,0.0
41,Hami,CN,2020-04-19 19:59:42,42.8,93.45,59.0,20,96,11.21,overcast clouds,0.0,0.0
42,Yulara,AU,2020-04-19 19:59:42,-25.24,130.99,77.0,31,18,3.36,few clouds,0.0,0.0
43,Lavrentiya,RU,2020-04-19 19:55:26,65.58,-171.0,19.47,90,100,7.83,overcast clouds,0.0,0.0
44,Lorengau,PG,2020-04-19 19:59:43,-2.02,147.27,82.42,78,27,5.68,light rain,0.3,0.0
45,Kadnikov,RU,2020-04-19 19:59:43,59.5,40.34,31.33,94,0,3.36,clear sky,0.0,0.0
46,Zhirnov,RU,2020-04-19 19:59:43,48.17,41.13,46.76,57,97,5.73,overcast clouds,0.0,0.0
47,Narsaq,GL,2020-04-19 19:59:43,60.92,-46.05,32.0,89,20,4.7,few clouds,0.0,0.0
48,Wanning,CN,2020-04-19 19:59:43,18.8,110.4,77.13,89,100,9.78,overcast clouds,0.0,0.0
49,Tiarei,PF,2020-04-19 19:59:43,-17.53,-149.33,86.0,70,73,9.17,broken clouds,0.0,0.0
50,Antofagasta,CL,2020-04-19 19:59:44,-23.65,-70.4,66.2,72,20,13.87,few clouds,0.0,0.0
51,Bredasdorp,ZA,2020-04-19 19:59:44,-34.53,20.04,61.0,87,9,4.7,clear sky,0.0,0.0
52,Saldanha,ZA,2020-04-19 19:56:54,-33.01,17.94,60.8,82,4,12.75,clear sky,0.0,0.0
53,Barcelos,PT,2020-04-19 19:57:37,41.54,-8.62,57.2,82,40,6.93,scattered clouds,0.0,0.0
54,Katsuura,JP,2020-04-19 19:57:00,35.13,140.3,57.52,76,100,10.04,light rain,0.19,0.0
55,Thompson,CA,2020-04-19 19:59:47,55.74,-97.86,21.2,79,90,9.17,light snow,0.0,0.0
56,Mahebourg,MU,2020-04-19 19:59:47,-20.41,57.7,77.0,78,40,10.29,scattered clouds,0.0,0.0
57,Khatanga,RU,2020-04-19 19:59:47,71.97,102.5,17.98,93,50,4.54,scattered clouds,0.0,0.0
58,Atuona,PF,2020-04-19 19:56:10,-9.8,-139.03,82.96,74,48,16.98,scattered clouds,0.0,0.0
59,Madang,PG,2020-04-19 19:59:48,-5.22,145.8,80.11,79,93,2.37,moderate rain,3.7,0.0
60,Yatou,CN,2020-04-19 19:59:48,37.15,122.38,47.52,91,47,12.5,light rain,0.11,0.0
61,Tuktoyaktuk,CA,2020-04-19 19:59:48,69.45,-133.04,8.6,84,90,11.41,light snow,0.0,0.0
62,Cherskiy,RU,2020-04-19 19:56:43,68.75,161.3,4.64,93,100,6.87,light snow,0.0,0.13
63,San Carlos De Bariloche,AR,2020-04-19 19:59:48,-41.15,-71.31,51.8,53,75,28.86,broken clouds,0.0,0.0
64,Santa Rosa,PH,2020-04-19 19:59:49,14.31,121.11,82.4,69,20,3.36,few clouds,0.0,0.0
65,Castro,BR,2020-04-19 19:59:49,-24.79,-50.01,62.6,56,33,3.02,scattered clouds,0.0,0.0
66,Mayo,US,2020-04-19 19:59:49,38.89,-76.51,66.0,58,1,16.11,clear sky,0.0,0.0
67,Lima,PE,2020-04-19 19:56:15,-12.04,-77.03,77.0,61,28,9.17,scattered clouds,0.0,0.0
68,Longyearbyen,SJ,2020-04-19 19:59:49,78.22,15.64,33.8,69,75,35.57,light intensity drizzle,0.0,0.0
69,Muswellbrook,AU,2020-04-19 19:59:49,-32.27,150.9,48.0,76,83,3.53,broken clouds,0.0,0.0
70,Baisha,CN,2020-04-19 19:59:50,26.52,110.93,61.09,73,66,2.01,broken clouds,0.0,0.0
71,Port Macquarie,AU,2020-04-19 19:59:50,-31.43,152.92,55.0,97,9,5.61,clear sky,0.0,0.0
72,Baker City,US,2020-04-19 19:57:02,44.77,-117.83,59.0,41,1,6.93,clear sky,0.0,0.0
73,Miedzychod,PL,2020-04-19 19:59:50,52.6,15.9,41.0,52,0,7.2,clear sky,0.0,0.0
74,Ocos,GT,2020-04-19 19:59:50,14.51,-92.19,91.4,70,90,11.41,overcast clouds,0.0,0.0
75,Luena,AO,2020-04-19 19:59:50,-11.78,19.92,62.31,63,83,4.38,broken clouds,0.0,0.0
76,Saint Anthony,US,2020-04-19 19:55:25,45.02,-93.22,50.0,24,1,12.75,clear sky,0.0,0.0
77,Altay,CN,2020-04-19 19:59:51,47.87,88.12,46.78,36,3,6.58,clear sky,0.0,0.0
78,Grand Gaube,MU,2020-04-19 19:57:21,-20.01,57.66,77.0,78,40,10.29,scattered clouds,0.0,0.0
79,Ambon,ID,2020-04-19 19:59:51,-3.7,128.18,83.44,73,69,5.73,light rain,2.23,0.0
80,Belyy Yar,RU,2020-04-19 19:59:54,53.6,91.39,42.8,41,0,8.95,clear sky,0.0,0.0
81,Natal,BR,2020-04-19 19:59:54,-5.79,-35.21,86.0,70,40,14.99,scattered clouds,0.0,0.0
82,Beringovskiy,RU,2020-04-19 19:59:54,63.05,179.32,18.32,96,100,16.44,light snow,0.0,0.32
83,Marawi,PH,2020-04-19 19:59:54,8.0,124.29,69.01,75,40,2.21,scattered clouds,0.0,0.0
84,Hobart,AU,2020-04-19 19:59:16,-42.88,147.33,51.8,81,90,5.82,drizzle,0.0,0.0
85,Bengkulu,ID,2020-04-19 19:59:55,-3.8,102.27,77.49,84,100,3.58,light rain,0.23,0.0
86,Kapaa,US,2020-04-19 19:56:45,22.08,-159.32,77.0,69,75,5.79,broken clouds,0.0,0.0
87,Sangar,RU,2020-04-19 19:59:55,63.92,127.47,7.16,85,19,0.38,few clouds,0.0,0.0
88,Walvis Bay,NA,2020-04-19 19:56:36,-22.96,14.51,60.8,82,1,3.36,clear sky,0.0,0.0
89,Landau,DE,2020-04-19 19:59:56,49.21,8.11,59.0,54,18,4.0,few clouds,0.0,0.0
90,Tarakan,ID,2020-04-19 19:59:56,3.3,117.63,77.74,86,63,6.08,light rain,0.12,0.0
91,Japura,ID,2020-04-19 19:59:56,-0.32,102.35,73.81,95,22,1.25,few clouds,0.0,0.0
92,Vao,NC,2020-04-19 19:59:56,-22.67,167.48,76.21,79,100,14.85,light rain,1.26,0.0
93,Airai,TL,2020-04-19 19:59:56,-8.93,125.41,59.32,59,0,2.3,clear sky,0.0,0.0
94,Goderich,CA,2020-04-19 19:59:57,43.75,-81.72,46.0,82,55,18.81,broken clouds,0.0,0.0
95,Avera,US,2020-04-19 19:59:57,33.19,-82.53,59.0,93,40,18.34,scattered clouds,0.0,0.0
96,Dhidhdhoo,MV,2020-04-19 19:59:57,6.88,73.1,86.38,71,14,7.52,few clouds,0.0,0.0
97,Haines Junction,CA,2020-04-19 19:59:57,60.75,-137.51,47.53,46,84,7.78,broken clouds,0.0,0.0
98,Algiers,DZ,2020-04-19 19:59:57,36.75,3.04,64.4,93,75,4.7,light rain,0.0,0.0
99,Corridonia,IT,2020-04-19 19:59:57,43.25,13.51,62.01,77,100,1.16,light rain,0.46,0.0
100,Isla Mujeres,MX,2020-04-19 19:59:58,21.23,-86.73,86.0,62,75,18.34,broken clouds,0.0,0.0
101,Pecos,US,2020-04-19 19:59:58,31.42,-103.49,81.0,8,1,17.22,clear sky,0.0,0.0
102,Catuday,PH,2020-04-19 19:59:58,16.29,119.81,80.35,78,100,5.21,light rain,0.11,0.0
103,Bahia Blanca,AR,2020-04-19 19:59:58,-38.72,-62.27,71.08,31,82,6.31,broken clouds,0.0,0.0
104,Tiznit,MA,2020-04-19 19:59:59,29.58,-9.5,55.87,70,79,14.72,light rain,0.21,0.0
105,Decatur,US,2020-04-19 19:59:59,39.84,-88.95,66.2,39,1,10.29,clear sky,0.0,0.0
106,Laguna,US,2020-04-19 19:59:59,38.42,-121.42,68.0,55,40,11.41,scattered clouds,0.0,0.0
107,Mar Del Plata,AR,2020-04-19 20:00:00,-38.0,-57.56,77.0,53,19,18.34,few clouds,0.0,0.0
108,Casselman,CA,2020-04-19 20:00:00,45.32,-75.08,44.01,89,100,4.0,light rain,1.04,0.0
109,Wanaka,NZ,2020-04-19 20:00:01,-44.7,169.15,43.95,64,50,6.55,light rain,0.34,0.0
110,Omsukchan,RU,2020-04-19 20:00:04,62.53,155.8,-0.67,82,100,5.01,overcast clouds,0.0,0.0
111,Dikson,RU,2020-04-19 20:00:04,73.51,80.55,34.93,89,95,29.04,overcast clouds,0.0,0.0
112,Shestakovo,RU,2020-04-19 20:00:04,56.49,103.96,19.24,91,0,3.09,clear sky,0.0,0.0
113,Bridlington,GB,2020-04-19 20:00:04,54.08,-0.19,46.4,81,0,10.29,clear sky,0.0,0.0
114,Ancud,CL,2020-04-19 20:00:05,-41.87,-73.82,55.4,76,75,9.17,broken clouds,0.0,0.0
115,Faanui,PF,2020-04-19 19:56:44,-16.48,-151.75,83.21,74,67,14.52,light rain,1.35,0.0
116,Carnarvon,AU,2020-04-19 20:00:05,-24.87,113.63,71.6,83,65,10.29,broken clouds,0.0,0.0
117,Umtata,ZA,2020-04-19 20:00:05,-31.59,28.78,68.0,56,0,1.12,clear sky,0.0,0.0
118,Torbay,CA,2020-04-19 20:00:06,47.67,-52.73,34.0,92,90,28.86,moderate rain,0.0,0.0
119,Tasiilaq,GL,2020-04-19 20:00:06,65.61,-37.64,33.8,64,100,9.17,overcast clouds,0.0,0.0
120,Riyadh,SA,2020-04-19 20:00:06,24.69,46.72,78.8,36,100,6.93,overcast clouds,0.0,0.0
121,Gorom-Gorom,BF,2020-04-19 20:00:06,14.44,-0.24,85.75,43,80,12.03,broken clouds,0.0,0.0
122,Hobyo,SO,2020-04-19 20:00:06,5.35,48.53,84.81,72,100,10.47,overcast clouds,0.0,0.0
123,Kodiak,US,2020-04-19 20:00:07,57.79,-152.41,44.6,81,90,9.17,overcast clouds,0.0,0.0
124,Cortez,US,2020-04-19 20:00:07,37.35,-108.59,60.8,25,20,4.7,few clouds,0.0,0.0
125,Kyra,RU,2020-04-19 20:00:07,49.58,111.98,19.51,86,78,8.66,light snow,0.0,0.7
126,Collie,AU,2020-04-19 20:00:08,-33.37,116.15,55.0,59,47,5.14,scattered clouds,0.0,0.0
127,Tuatapere,NZ,2020-04-19 20:00:08,-46.13,167.68,44.01,81,53,5.99,broken clouds,0.0,0.0
128,Necochea,AR,2020-04-19 20:00:08,-38.55,-58.74,69.01,71,28,4.0,scattered clouds,0.0,0.0
129,Luoyang,CN,2020-04-19 20:00:08,34.68,112.45,63.0,99,99,5.41,overcast clouds,0.0,0.0
130,Mao,ES,2020-04-19 20:00:09,39.89,4.27,60.8,100,75,9.17,shower rain,0.0,0.0
131,Tautira,PF,2020-04-19 20:00:09,-17.73,-149.15,86.0,70,100,9.17,light rain,0.26,0.0
132,Jalu,LY,2020-04-19 20:00:09,29.03,21.55,73.17,21,49,6.44,scattered clouds,0.0,0.0
133,Sitka,US,2020-04-19 20:00:09,57.05,-135.33,41.0,93,90,3.36,overcast clouds,0.0,0.0
134,Abha,SA,2020-04-19 19:59:42,18.22,42.51,66.2,68,92,6.93,overcast clouds,0.0,0.0
135,Kaohsiung,TW,2020-04-19 20:00:10,22.62,120.31,75.99,94,20,4.7,few clouds,0.0,0.0
136,Karratha,AU,2020-04-19 20:00:10,-20.74,116.85,82.22,60,100,4.61,overcast clouds,0.0,0.0
137,Nanortalik,GL,2020-04-19 20:00:10,60.14,-45.24,29.89,90,13,13.42,few clouds,0.0,0.0
138,Ballina,AU,2020-04-19 20:00:10,-28.87,153.57,60.8,93,1,4.7,clear sky,0.0,0.0
139,Tiksi,RU,2020-04-19 20:00:11,71.69,128.87,10.42,89,100,6.31,overcast clouds,0.0,0.0
140,Waitati,NZ,2020-04-19 20:00:11,-45.75,170.57,51.01,46,37,5.01,scattered clouds,0.0,0.0
141,Ust-Kuyga,RU,2020-04-19 20:00:11,70.02,135.6,5.11,92,64,7.31,broken clouds,0.0,0.0
142,Souillac,MU,2020-04-19 20:00:11,-20.52,57.52,77.0,78,40,10.29,scattered clouds,0.0,0.0
143,Karlivka,UA,2020-04-19 20:00:11,49.46,35.13,41.43,61,8,3.29,clear sky,0.0,0.0
144,Kushima,JP,2020-04-19 20:00:13,31.46,131.23,62.6,72,75,24.16,broken clouds,0.0,0.0
145,Polovinnoye,RU,2020-04-19 20:00:13,54.79,65.99,43.41,58,99,5.77,overcast clouds,0.0,0.0
146,Boyolangu,ID,2020-04-19 20:00:13,-8.12,111.89,76.75,85,96,2.21,light rain,1.07,0.0
147,Pacific Grove,US,2020-04-19 20:00:13,36.62,-121.92,61.0,63,90,3.36,overcast clouds,0.0,0.0
148,Guerrero Negro,MX,2020-04-19 20:00:13,27.98,-114.06,67.42,57,98,18.86,overcast clouds,0.0,0.0
149,Mackenzie,CA,2020-04-19 20:00:14,55.3,-123.17,48.2,45,1,4.7,clear sky,0.0,0.0
150,Nara,JP,2020-04-19 20:00:14,34.69,135.8,55.99,86,100,11.21,moderate rain,7.89,0.0
151,Cockburn Town,TC,2020-04-19 20:00:08,21.46,-71.14,79.16,80,0,13.8,clear sky,0.0,0.0
152,Bouake,CI,2020-04-19 20:00:15,7.69,-5.02,86.0,66,20,6.93,few clouds,0.0,0.0
153,Along,IN,2020-04-19 20:00:15,28.17,94.77,64.65,70,100,2.37,light rain,2.3,0.0
154,New Norfolk,AU,2020-04-19 20:00:15,-42.78,147.06,48.99,87,100,5.37,light rain,0.0,0.0
155,Pangnirtung,CA,2020-04-19 20:00:16,66.15,-65.71,3.2,77,20,12.75,few clouds,0.0,0.0
156,Formosa Do Rio Preto,BR,2020-04-19 20:00:16,-11.05,-45.19,74.55,80,90,4.34,light rain,0.67,0.0
157,Hammond,US,2020-04-19 20:00:16,41.58,-87.5,55.4,46,1,16.11,clear sky,0.0,0.0
158,Avarua,CK,2020-04-19 20:00:16,-21.21,-159.78,80.6,74,2,6.93,light rain,0.14,0.0
159,Manokwari,ID,2020-04-19 19:57:22,-0.87,134.08,81.05,71,50,3.78,scattered clouds,0.0,0.0
160,Constitucion,CL,2020-04-19 19:56:18,-35.33,-72.42,64.38,50,79,18.19,broken clouds,0.0,0.0
161,Yellowknife,CA,2020-04-19 20:00:17,62.46,-114.35,26.01,62,40,14.99,scattered clouds,0.0,0.0
162,Derzhavinsk,KZ,2020-04-19 19:56:52,51.1,66.32,54.34,68,98,0.78,overcast clouds,0.0,0.0
163,Georgetown,MY,2020-04-19 20:00:18,5.41,100.34,80.6,94,20,4.7,few clouds,0.0,0.0
164,La Ronge,CA,2020-04-19 19:56:17,55.1,-105.28,41.0,44,75,21.92,broken clouds,0.0,0.0
165,Oranjemund,NA,2020-04-19 20:00:18,-28.55,16.43,59.31,93,5,2.66,clear sky,0.0,0.0
166,Cape Town,ZA,2020-04-19 19:58:35,-33.93,18.42,63.0,87,75,18.34,broken clouds,0.0,0.0
167,Sabha,LY,2020-04-19 20:00:19,27.04,14.43,83.48,15,13,19.48,few clouds,0.0,0.0
168,Lensk,RU,2020-04-19 20:00:19,60.73,114.93,15.75,93,88,2.64,overcast clouds,0.0,0.0
169,Marzuq,YE,2020-04-19 20:00:19,14.4,46.47,75.65,46,99,1.14,overcast clouds,0.0,0.0
170,Melita,CA,2020-04-19 20:00:19,49.27,-101.0,52.0,43,74,14.0,broken clouds,0.0,0.0
171,Oudtshoorn,ZA,2020-04-19 20:00:19,-33.59,22.2,62.6,67,0,4.7,clear sky,0.0,0.0
172,Kaitangata,NZ,2020-04-19 20:00:19,-46.28,169.85,51.01,49,85,11.99,overcast clouds,0.0,0.0
173,Houma,US,2020-04-19 20:00:20,29.6,-90.72,82.4,74,1,9.17,clear sky,0.0,0.0
174,Westport,US,2020-04-19 20:00:18,41.14,-73.36,59.0,47,1,17.22,clear sky,0.0,0.0
175,Sola,VU,2020-04-19 20:00:20,-13.88,167.55,82.49,76,39,8.08,light rain,1.68,0.0
176,Grindavik,IS,2020-04-19 19:56:27,63.84,-22.43,46.4,100,90,28.86,light intensity drizzle,0.0,0.0
177,Alford,GB,2020-04-19 19:59:08,57.23,-2.7,43.0,77,0,4.0,clear sky,0.0,0.0
178,Saint George,US,2020-04-19 20:00:05,37.1,-113.58,73.0,34,1,3.36,clear sky,0.0,0.0
179,San Jose,US,2020-04-19 19:56:37,37.34,-121.89,68.0,48,75,10.29,broken clouds,0.0,0.0
180,Port Elizabeth,ZA,2020-04-19 19:56:22,-33.92,25.57,71.6,78,59,4.7,broken clouds,0.0,0.0
181,Kalmar,SE,2020-04-19 20:00:21,56.66,16.36,44.6,65,0,4.7,clear sky,0.0,0.0
182,Kutum,SD,2020-04-19 20:00:21,14.2,24.67,68.41,15,94,8.37,overcast clouds,0.0,0.0
183,Vila Franca Do Campo,PT,2020-04-19 20:00:22,37.72,-25.43,59.0,62,20,21.92,few clouds,0.0,0.0
184,Port Hardy,CA,2020-04-19 20:00:23,50.7,-127.42,48.2,93,90,5.82,overcast clouds,0.0,0.0
185,Isangel,VU,2020-04-19 20:00:23,-19.55,169.27,78.55,83,100,14.72,light rain,2.49,0.0
186,Sistranda,NO,2020-04-19 20:00:23,63.73,8.83,41.0,86,40,5.82,scattered clouds,0.0,0.0
187,Lasa,IT,2020-04-19 20:00:23,46.62,10.7,51.8,76,75,4.7,broken clouds,0.0,0.0
188,Ust-Maya,RU,2020-04-19 20:00:24,60.42,134.53,6.8,91,5,2.46,clear sky,0.0,0.0
189,Chapais,CA,2020-04-19 20:00:24,49.78,-74.85,23.0,62,90,13.87,light snow,0.0,0.0
190,Medford,US,2020-04-19 20:00:24,42.33,-122.88,66.99,44,1,5.82,clear sky,0.0,0.0
191,Benghazi,LY,2020-04-19 20:00:24,32.12,20.07,65.98,41,51,11.83,broken clouds,0.0,0.0
192,Coquimbo,CL,2020-04-19 20:00:25,-29.95,-71.34,64.4,77,75,11.41,broken clouds,0.0,0.0
193,Borisoglebsk,RU,2020-04-19 20:00:25,51.37,42.08,36.0,74,56,4.25,broken clouds,0.0,0.0
194,Dunedin,NZ,2020-04-19 20:00:25,-45.87,170.5,51.01,56,50,10.11,scattered clouds,0.0,0.0
195,Chachapoyas,PE,2020-04-19 20:00:25,-6.23,-77.87,64.11,35,61,2.39,light rain,1.1,0.0
196,Kumylzhenskaya,RU,2020-04-19 20:00:25,49.88,42.59,37.99,53,14,4.79,few clouds,0.0,0.0
197,Viedma,AR,2020-04-19 20:00:26,-40.81,-63.0,66.83,32,46,4.99,scattered clouds,0.0,0.0
198,Lubango,AO,2020-04-19 20:00:26,-14.92,13.49,59.56,56,12,4.07,light rain,0.42,0.0
199,Hasaki,JP,2020-04-19 20:00:26,35.73,140.83,48.2,87,75,12.75,light rain,0.0,0.0
200,Changuinola,PA,2020-04-19 20:00:26,9.43,-82.52,87.01,72,25,7.74,scattered clouds,0.0,0.0
201,Belaya Gora,RU,2020-04-19 20:00:26,68.53,146.42,3.96,89,85,8.93,overcast clouds,0.0,0.0
202,Gualeguaychu,AR,2020-04-19 19:56:06,-33.01,-58.52,84.0,39,0,5.84,clear sky,0.0,0.0
203,Khilok,RU,2020-04-19 20:00:27,51.37,110.47,16.23,77,84,5.55,broken clouds,0.0,0.0
204,Victor Harbor,AU,2020-04-19 20:00:27,-35.57,138.62,64.0,91,100,4.0,light rain,0.27,0.0
205,Shubarkuduk,KZ,2020-04-19 20:00:27,49.14,56.49,54.79,77,100,17.38,light rain,0.37,0.0
206,Tanout,NE,2020-04-19 20:00:27,14.97,8.89,82.06,12,2,4.59,clear sky,0.0,0.0
207,Parkes,AU,2020-04-19 20:00:28,-33.13,148.18,54.0,68,100,5.1,overcast clouds,0.0,0.0
208,Tessalit,ML,2020-04-19 20:00:28,20.2,1.01,86.04,22,1,12.86,clear sky,0.0,0.0
209,East London,ZA,2020-04-19 20:00:28,-33.02,27.91,75.69,58,0,12.35,clear sky,0.0,0.0
210,Porbandar,IN,2020-04-19 20:00:28,21.64,69.61,79.29,74,8,9.22,clear sky,0.0,0.0
211,Lompoc,US,2020-04-19 20:00:00,34.64,-120.46,62.6,63,90,11.41,overcast clouds,0.0,0.0
212,Fochville,ZA,2020-04-19 20:00:28,-26.49,27.49,61.93,29,0,3.53,clear sky,0.0,0.0
213,Berdsk,RU,2020-04-19 20:00:29,54.76,83.1,37.4,69,99,2.24,smoke,0.0,0.0
214,Nuuk,GL,2020-04-19 20:00:29,64.18,-51.72,33.8,55,72,38.03,mist,0.0,0.0
215,Mandalgovi,MN,2020-04-19 19:56:15,45.76,106.27,20.98,56,0,9.6,clear sky,0.0,0.0
216,Catamarca,AR,2020-04-19 20:00:30,-28.47,-65.79,84.99,54,0,1.99,clear sky,0.0,0.0
217,Veraval,IN,2020-04-19 20:00:30,20.9,70.37,80.22,57,2,11.59,clear sky,0.0,0.0
218,Saskylakh,RU,2020-04-19 20:00:31,71.92,114.08,12.06,94,0,3.33,clear sky,0.0,0.0
219,Canavieiras,BR,2020-04-19 20:00:31,-15.68,-38.95,74.73,92,96,11.03,light rain,2.95,0.0
220,Geraldton,AU,2020-04-19 19:57:22,-28.77,114.6,55.4,93,0,9.17,clear sky,0.0,0.0
221,Rincon,US,2020-04-19 20:00:32,32.3,-81.24,60.8,87,90,17.22,thunderstorm,0.0,0.0
222,Kovylkino,RU,2020-04-19 20:00:32,54.04,43.91,39.31,70,99,4.61,overcast clouds,0.0,0.0
223,Lake Charles,US,2020-04-19 19:56:20,30.21,-93.2,82.4,83,90,13.87,overcast clouds,0.0,0.0
224,Upernavik,GL,2020-04-19 20:00:32,72.79,-56.15,23.95,88,100,18.52,overcast clouds,0.0,0.0
225,Kirovsk,UA,2020-04-19 20:00:33,48.64,38.64,45.73,73,98,3.58,light rain,0.17,0.0
226,Esperance,AU,2020-04-19 20:00:33,-33.87,121.9,51.8,87,0,5.82,clear sky,0.0,0.0
227,Kahului,US,2020-04-19 20:00:33,20.89,-156.47,77.0,61,20,6.93,few clouds,0.0,0.0
228,Chumikan,RU,2020-04-19 20:00:33,54.72,135.31,21.58,95,100,11.05,snow,0.0,1.84
229,Mildura,AU,2020-04-19 20:00:33,-34.2,142.15,68.0,32,100,13.87,overcast clouds,0.0,0.0
230,Tucurui,BR,2020-04-19 19:55:57,-3.77,-49.67,79.88,81,76,1.16,light rain,1.01,0.0
231,Owando,CG,2020-04-19 20:00:34,-0.48,15.9,72.63,78,92,1.68,overcast clouds,0.0,0.0
232,Duku,NG,2020-04-19 20:00:34,11.24,4.91,94.1,25,34,1.45,scattered clouds,0.0,0.0
233,Szihalom,HU,2020-04-19 20:00:34,47.77,20.48,47.16,52,38,14.67,scattered clouds,0.0,0.0
234,Qaanaaq,GL,2020-04-19 19:56:13,77.48,-69.36,19.11,86,99,8.32,overcast clouds,0.0,0.0
235,Victoria,HK,2020-04-19 20:00:00,22.29,114.16,75.99,88,94,4.0,overcast clouds,0.0,0.0
236,Sibolga,ID,2020-04-19 20:00:35,1.74,98.78,76.73,79,100,3.06,overcast clouds,0.0,0.0
237,Ribeira Brava,PT,2020-04-19 20:00:35,32.65,-17.07,61.0,81,28,10.78,scattered clouds,0.0,0.0
238,Cidreira,BR,2020-04-19 20:00:36,-30.18,-50.21,68.86,79,0,13.82,clear sky,0.0,0.0
239,Vestmannaeyjar,IS,2020-04-19 20:00:36,63.44,-20.27,44.6,100,90,27.51,moderate rain,0.0,0.0
240,Ribeira Grande,PT,2020-04-19 20:00:36,38.52,-28.7,59.0,51,20,18.34,few clouds,0.0,0.0
241,Kavaratti,IN,2020-04-19 20:00:36,10.57,72.64,85.24,68,13,3.38,few clouds,0.0,0.0
242,Barrow,US,2020-04-19 19:56:51,71.29,-156.79,10.4,85,90,4.7,light snow,0.0,0.0
243,Teknaf,BD,2020-04-19 20:00:36,20.86,92.31,76.86,87,60,2.21,broken clouds,0.0,0.0
244,Portland,US,2020-04-19 19:59:08,45.52,-122.68,60.01,54,75,5.82,broken clouds,0.0,0.0
245,Hilton Head Island,US,2020-04-19 19:56:33,32.22,-80.75,62.01,93,90,14.99,light intensity drizzle,0.0,0.0
246,Sungurlu,TR,2020-04-19 20:00:37,40.17,34.37,57.09,29,93,3.74,overcast clouds,0.0,0.0
247,Bowen,AU,2020-04-19 20:00:37,-20.02,148.23,75.0,94,40,5.82,scattered clouds,0.0,0.0
248,Labuhan,ID,2020-04-19 20:00:37,-6.88,112.21,79.0,80,91,1.77,overcast clouds,0.0,0.0
249,Sabang,ID,2020-04-19 20:00:37,5.89,95.32,83.03,74,31,6.96,scattered clouds,0.0,0.0
250,Puerto Ayora,EC,2020-04-19 20:00:37,-0.74,-90.35,86.0,70,40,13.87,shower rain,0.0,0.0
251,Carballo,ES,2020-04-19 20:00:37,43.21,-8.69,57.0,82,20,1.99,few clouds,0.0,0.0
252,Bend,US,2020-04-19 19:56:00,44.06,-121.32,59.0,30,1,3.36,clear sky,0.0,0.0
253,Ulaanbaatar,MN,2020-04-19 19:58:30,47.91,106.88,8.6,65,36,2.24,scattered clouds,0.0,0.0
254,Fortuna,US,2020-04-19 20:00:38,40.6,-124.16,60.01,62,20,6.93,few clouds,0.0,0.0
255,Pevek,RU,2020-04-19 20:00:39,69.7,170.31,6.69,94,100,5.68,light snow,0.0,0.17
256,Husavik,IS,2020-04-19 20:00:39,66.04,-17.34,46.4,70,63,24.16,broken clouds,0.0,0.0
257,Kungurtug,RU,2020-04-19 20:00:39,50.6,97.52,29.05,53,0,0.45,clear sky,0.0,0.0
258,Bethel,US,2020-04-19 20:00:39,41.37,-73.41,61.0,33,1,16.11,clear sky,0.0,0.0
259,Kysyl-Syr,RU,2020-04-19 20:00:39,63.9,122.76,4.78,92,65,4.88,broken clouds,0.0,0.0
260,Port Hawkesbury,CA,2020-04-19 20:00:39,45.62,-61.35,36.0,80,90,16.11,moderate rain,0.0,0.0
261,Colac,AU,2020-04-19 20:00:40,-38.33,143.58,50.0,98,86,1.01,overcast clouds,0.0,0.0
262,Salcedo,PH,2020-04-19 20:00:40,12.81,121.47,78.39,81,37,4.83,scattered clouds,0.0,0.0
263,Umm Kaddadah,SD,2020-04-19 20:00:40,13.6,26.69,78.12,14,68,11.79,broken clouds,0.0,0.0
264,Mujiayingzi,CN,2020-04-19 20:00:40,42.12,118.78,35.38,53,84,29.28,broken clouds,0.0,0.0
265,Slave Lake,CA,2020-04-19 19:59:47,55.28,-114.77,41.0,60,90,11.12,overcast clouds,0.0,0.0
266,Cap Malheureux,MU,2020-04-19 20:00:40,-19.98,57.61,77.0,78,40,10.29,scattered clouds,0.0,0.0
267,Puerto Narino,CO,2020-04-19 20:00:40,-3.77,-70.38,87.8,66,75,6.93,broken clouds,0.0,0.0
268,Saint-Francois,FR,2020-04-19 19:57:24,46.42,3.91,60.01,82,100,2.19,light rain,0.0,0.0
269,Pong,TH,2020-04-19 20:00:41,19.15,100.28,80.96,44,31,2.24,scattered clouds,0.0,0.0
270,Namatanai,PG,2020-04-19 20:00:41,-3.67,152.43,82.09,77,76,5.86,broken clouds,0.0,0.0
271,Torit,SS,2020-04-19 20:00:41,4.41,32.57,72.81,65,100,3.04,overcast clouds,0.0,0.0
272,Butaritari,KI,2020-04-19 20:00:43,3.07,172.79,83.1,76,28,10.04,light rain,0.37,0.0
273,Fairbanks,US,2020-04-19 20:00:43,64.84,-147.72,45.0,100,90,2.73,light rain,0.0,0.0
274,Half Moon Bay,US,2020-04-19 20:00:43,37.46,-122.43,64.0,71,90,8.05,overcast clouds,0.0,0.0
275,Codrington,AU,2020-04-19 20:00:43,-38.27,141.97,59.27,83,55,22.26,light rain,0.24,0.0
276,Eureka,US,2020-04-19 20:00:23,40.8,-124.16,59.0,68,8,7.0,clear sky,0.0,0.0
277,Broome,US,2020-04-19 19:57:28,42.25,-75.83,57.99,43,1,16.11,clear sky,0.0,0.0
278,San Quintin,MX,2020-04-19 19:56:31,30.48,-115.95,64.04,63,100,18.3,overcast clouds,0.0,0.0
279,Kawalu,ID,2020-04-19 20:00:45,-7.38,108.21,73.47,80,80,1.45,light rain,0.46,0.0
280,Gobabis,NA,2020-04-19 20:00:46,-22.45,18.97,69.8,64,2,3.36,clear sky,0.0,0.0
281,Ixtapa,MX,2020-04-19 20:00:04,20.7,-105.2,79.0,73,5,13.87,clear sky,0.0,0.0
282,Rio Grande,BR,2020-04-19 19:56:22,-32.03,-52.1,78.8,57,20,12.75,few clouds,0.0,0.0
283,Vanimo,PG,2020-04-19 20:00:46,-2.67,141.3,80.87,81,78,2.37,light rain,1.19,0.0
284,Chaibasa,IN,2020-04-19 20:00:46,22.57,85.82,79.38,47,75,7.58,broken clouds,0.0,0.0
285,Colchester,GB,2020-04-19 20:00:25,51.89,0.9,48.0,77,0,10.0,clear sky,0.0,0.0
286,Zhuhai,CN,2020-04-19 20:00:47,22.28,113.57,77.0,88,40,6.93,scattered clouds,0.0,0.0
287,Kencong,ID,2020-04-19 20:00:47,-8.28,113.37,79.43,72,100,2.71,overcast clouds,0.0,0.0
288,Levanger,NO,2020-04-19 19:56:37,63.75,11.3,46.4,70,40,11.41,scattered clouds,0.0,0.0
289,Celestun,MX,2020-04-19 20:00:47,20.87,-90.4,90.34,49,46,9.73,scattered clouds,0.0,0.0
290,Kudahuvadhoo,MV,2020-04-19 20:00:47,2.67,72.89,84.63,74,43,10.22,scattered clouds,0.0,0.0
291,Batagay-Alyta,RU,2020-04-19 20:00:47,67.8,130.41,15.49,86,97,2.53,overcast clouds,0.0,0.0
292,San Cristobal,VE,2020-04-19 20:00:47,7.77,-72.22,91.4,46,40,9.17,smoke,0.0,0.0
293,Sydney,AU,2020-04-19 19:56:17,-33.87,151.21,59.0,87,100,9.17,overcast clouds,0.0,0.0
294,Moreira,PT,2020-04-19 20:00:48,41.06,-8.39,55.99,78,25,1.01,scattered clouds,0.0,0.0
295,Temerloh,MY,2020-04-19 20:00:48,3.45,102.42,74.5,95,13,0.63,few clouds,0.0,0.0
296,Severo-Kurilsk,RU,2020-04-19 20:00:48,50.68,156.12,29.1,90,76,12.01,broken clouds,0.0,0.0
297,Sao Filipe,CV,2020-04-19 20:00:48,14.9,-24.5,72.19,75,1,17.92,clear sky,0.0,0.0
298,Xingyi,CN,2020-04-19 20:00:48,24.19,102.82,58.1,36,0,4.36,clear sky,0.0,0.0
299,Pathein,MM,2020-04-19 20:00:49,16.78,94.73,76.95,86,14,8.75,few clouds,0.0,0.0
300,Clyde River,CA,2020-04-19 20:00:49,70.47,-68.59,6.8,65,1,16.11,light snow,0.0,0.0
301,Douentza,ML,2020-04-19 20:00:49,15.0,-2.95,82.18,52,95,4.99,overcast clouds,0.0,0.0
302,Orlik,RU,2020-04-19 20:00:49,52.52,99.83,22.23,66,17,3.44,few clouds,0.0,0.0
303,Margate,GB,2020-04-19 20:00:49,51.38,1.39,50.0,86,0,21.72,clear sky,0.0,0.0
304,Petropavlovsk-Kamchatskiy,RU,2020-04-19 19:56:12,53.05,158.65,24.8,38,32,11.18,scattered clouds,0.0,0.0
305,Rovaniemi,FI,2020-04-19 20:00:46,66.5,25.72,39.2,80,90,4.7,overcast clouds,0.0,0.0
306,Gilgit,PK,2020-04-19 19:59:53,35.92,74.31,51.42,24,100,1.7,overcast clouds,0.0,0.0
307,Ayios Vasilios,GR,2020-04-19 20:00:50,37.8,22.8,60.01,61,89,1.01,overcast clouds,0.0,0.0
308,Aasiaat,GL,2020-04-19 20:00:50,68.71,-52.87,27.25,95,96,23.91,light snow,0.0,0.72
309,Churapcha,RU,2020-04-19 20:00:50,62.0,132.43,3.25,88,0,4.52,clear sky,0.0,0.0
310,Saint-Philippe,RE,2020-04-19 20:00:51,-21.36,55.77,77.0,73,20,16.11,few clouds,0.0,0.0
311,Saint-Joseph,RE,2020-04-19 20:00:51,-21.37,55.62,77.0,73,20,16.11,few clouds,0.0,0.0
312,Bilma,NE,2020-04-19 20:00:51,18.69,12.92,86.0,12,78,4.54,broken clouds,0.0,0.0
313,Lazaro Cardenas,MX,2020-04-19 19:59:51,17.96,-102.2,84.36,59,24,9.04,few clouds,0.0,0.0
314,Port-Gentil,GA,2020-04-19 20:00:51,-0.72,8.78,84.2,83,20,5.82,few clouds,0.0,0.0
315,Waipawa,NZ,2020-04-19 20:00:52,-41.41,175.52,55.99,71,27,13.73,scattered clouds,0.0,0.0
316,Zinder,NE,2020-04-19 20:00:52,13.81,8.99,82.33,12,35,4.88,scattered clouds,0.0,0.0
317,Porto Santo,PT,2020-04-19 20:00:52,33.07,-16.34,64.4,72,40,6.93,scattered clouds,0.0,0.0
318,Tamale,GH,2020-04-19 20:00:53,9.4,-0.84,93.16,36,100,9.1,overcast clouds,0.0,0.0
319,Kisangani,CD,2020-04-19 19:57:48,0.52,25.2,71.96,79,100,0.49,overcast clouds,0.0,0.0
320,Melton,AU,2020-04-19 20:00:53,-37.68,144.58,57.0,70,100,11.01,overcast clouds,0.0,0.0
321,Tomislavgrad,BA,2020-04-19 20:00:53,43.72,17.23,52.5,62,100,1.23,overcast clouds,0.0,0.0
322,Obeliai,LT,2020-04-19 20:00:53,55.97,25.15,33.46,88,12,6.06,few clouds,0.0,0.0
323,Nadym,RU,2020-04-19 20:00:53,65.53,72.52,34.29,94,100,12.55,light rain,0.12,0.0
324,Mongu,ZM,2020-04-19 20:00:54,-15.25,23.13,66.83,60,16,2.77,few clouds,0.0,0.0
325,Khor,RU,2020-04-19 20:00:54,47.89,134.95,46.26,55,100,9.93,overcast clouds,0.0,0.0
326,Keflavik,IS,2020-04-19 20:00:54,64.0,-22.56,46.4,100,90,28.86,light intensity drizzle,0.0,0.0
327,Mount Gambier,AU,2020-04-19 20:00:54,-37.83,140.77,60.8,87,90,33.33,light rain,0.0,0.0
328,Upata,VE,2020-04-19 20:00:54,8.01,-62.4,82.92,51,82,3.89,light rain,0.31,0.0
329,Tieling,CN,2020-04-19 20:00:54,42.29,123.84,48.63,80,100,17.36,light rain,2.5,0.0
330,Ajaccio,FR,2020-04-19 19:58:37,42.0,8.92,60.8,93,75,2.24,light rain,0.0,0.0
331,Novikovo,RU,2020-04-19 20:00:55,51.15,37.89,39.9,68,44,0.49,scattered clouds,0.0,0.0
332,Kirakira,SB,2020-04-19 20:00:55,-10.45,161.92,80.83,78,96,1.21,light rain,0.71,0.0
333,Muros,ES,2020-04-19 20:00:55,42.78,-9.06,60.01,77,54,1.99,broken clouds,0.0,0.0
334,Mecca,SA,2020-04-19 20:00:55,21.43,39.83,75.7,70,100,0.29,overcast clouds,0.0,0.0
335,Havre-Saint-Pierre,CA,2020-04-19 20:00:55,50.23,-63.6,33.8,50,1,13.87,clear sky,0.0,0.0
336,Vardo,NO,2020-04-19 20:00:57,70.37,31.11,35.6,100,75,9.17,light intensity drizzle,0.0,0.0
337,San Patricio,MX,2020-04-19 20:00:57,19.22,-104.7,78.8,69,5,17.22,clear sky,0.0,0.0
338,Lebu,CL,2020-04-19 20:00:57,-37.62,-73.65,58.77,67,100,10.25,overcast clouds,0.0,0.0
339,Homer,US,2020-04-19 20:00:58,59.64,-151.55,48.2,70,90,6.93,overcast clouds,0.0,0.0
340,Norwich,GB,2020-04-19 20:00:15,52.63,1.3,46.4,75,0,10.29,clear sky,0.0,0.0
341,Berlevag,NO,2020-04-19 20:00:58,70.86,29.09,35.6,93,75,24.16,shower rain,0.0,0.0
342,East Stroudsburg,US,2020-04-19 20:00:58,41.0,-75.18,59.0,42,89,13.53,overcast clouds,0.0,0.0
343,Miyako,JP,2020-04-19 20:00:58,39.64,141.95,46.72,90,100,8.9,light rain,0.32,0.0
344,Northam,GB,2020-04-19 20:00:58,51.03,-4.22,55.99,67,90,1.01,overcast clouds,0.0,0.0
345,Zhigansk,RU,2020-04-19 20:00:59,66.77,123.37,12.25,93,98,8.99,overcast clouds,0.0,0.0
346,Leshukonskoye,RU,2020-04-19 20:00:59,64.9,45.76,31.96,97,100,4.23,light snow,0.0,0.53
347,Aberdeen,GB,2020-04-19 20:00:59,57.14,-2.1,44.6,81,75,12.75,broken clouds,0.0,0.0
348,Mayna,RU,2020-04-19 20:00:59,54.11,47.62,39.07,68,100,4.45,overcast clouds,0.0,0.0
349,Wahiawa,US,2020-04-19 19:59:32,21.5,-158.02,78.8,73,40,5.82,scattered clouds,0.0,0.0
350,Rosarito,MX,2020-04-19 19:59:33,32.33,-117.03,62.01,72,90,8.05,overcast clouds,0.0,0.0
351,Pokrovo-Prigorodnoye,RU,2020-04-19 19:57:39,52.68,41.42,40.35,70,100,3.96,overcast clouds,0.0,0.0
352,Norman Wells,CA,2020-04-19 20:01:00,65.28,-126.83,26.6,68,90,14.99,overcast clouds,0.0,0.0
353,Sungairaya,ID,2020-04-19 20:01:00,0.7,108.9,77.97,82,100,2.28,light rain,0.17,0.0
354,Tilichiki,RU,2020-04-19 20:01:00,60.47,166.1,12.27,90,30,13.47,scattered clouds,0.0,0.0
355,Tignere,CM,2020-04-19 20:01:00,7.37,12.65,71.58,54,69,5.14,light rain,0.11,0.0
356,Thayetmyo,MM,2020-04-19 20:01:00,19.32,95.18,74.66,72,5,1.39,clear sky,0.0,0.0
357,Batemans Bay,AU,2020-04-19 20:01:00,-35.72,150.18,55.99,100,100,7.05,overcast clouds,0.0,0.0
358,Kiunga,PG,2020-04-19 20:01:00,-6.12,141.29,74.79,97,99,0.38,moderate rain,4.19,0.0
359,Kingston,JM,2020-04-19 20:01:01,18.0,-76.79,86.0,74,40,18.34,scattered clouds,0.0,0.0
360,Claremore,US,2020-04-19 20:01:01,36.31,-95.62,69.01,42,90,13.87,overcast clouds,0.0,0.0
361,Bograd,RU,2020-04-19 20:01:01,54.23,90.83,42.8,41,1,8.95,clear sky,0.0,0.0
362,Semey,KZ,2020-04-19 19:56:24,50.41,80.23,53.17,48,62,4.14,broken clouds,0.0,0.0
363,Concordia,AR,2020-04-19 20:01:03,-31.39,-58.02,82.4,51,0,9.17,clear sky,0.0,0.0
364,Vostok,RU,2020-04-19 20:01:03,46.49,135.88,34.68,64,100,4.03,overcast clouds,0.0,0.0
365,Fuling,CN,2020-04-19 20:01:03,29.7,107.39,64.8,80,100,2.82,moderate rain,4.91,0.0
366,Gilbues,BR,2020-04-19 20:01:03,-9.83,-45.34,77.22,71,18,5.61,light rain,0.11,0.0
367,Ekhabi,RU,2020-04-19 20:01:03,53.51,142.97,28.98,98,100,12.15,light snow,0.0,1.27
368,Alofi,NU,2020-04-19 19:57:33,-19.06,-169.92,78.8,94,61,4.7,broken clouds,0.0,0.0
369,Ponta Do Sol,PT,2020-04-19 20:00:33,32.67,-17.1,61.0,54,26,18.01,scattered clouds,0.0,0.0
370,Namuac,PH,2020-04-19 20:01:04,18.61,121.17,78.01,83,86,5.03,overcast clouds,0.0,0.0
371,Roros,NO,2020-04-19 20:01:04,62.57,11.38,35.6,73,99,3.36,overcast clouds,0.0,0.0
372,Zhezkazgan,KZ,2020-04-19 20:01:04,47.8,67.71,60.24,32,98,7.45,overcast clouds,0.0,0.0
373,Dakoro,NE,2020-04-19 20:01:04,14.51,6.76,82.13,12,0,3.67,clear sky,0.0,0.0
374,Iqaluit,CA,2020-04-19 20:01:04,63.75,-68.51,5.0,65,5,3.36,clear sky,0.0,0.0
375,Cravo Norte,CO,2020-04-19 20:01:04,6.3,-70.2,89.37,50,94,2.53,light rain,0.12,0.0
376,Smithers,CA,2020-04-19 20:00:10,54.78,-127.17,55.4,47,5,6.93,clear sky,0.0,0.0
377,Le Moule,GP,2020-04-19 20:01:05,16.33,-61.35,84.2,66,75,12.75,broken clouds,0.0,0.0
378,Aykhal,RU,2020-04-19 20:01:05,66.0,111.5,19.4,44,0,4.47,clear sky,0.0,0.0
379,Tambun,ID,2020-04-19 20:01:05,-6.26,107.07,82.99,83,20,3.36,haze,0.0,0.0
380,Tapejara,BR,2020-04-19 20:01:05,-28.07,-52.01,62.08,55,0,1.05,clear sky,0.0,0.0
381,Dwarka,IN,2020-04-19 20:01:06,22.24,68.97,80.51,81,8,11.56,clear sky,0.0,0.0
382,Limbe,CM,2020-04-19 20:01:06,4.02,9.21,84.2,79,40,2.24,scattered clouds,0.0,0.0
383,Sao Raimundo Nonato,BR,2020-04-19 20:01:06,-9.02,-42.7,77.04,75,49,3.67,light rain,0.55,0.0
384,Ormara,PK,2020-04-19 20:01:06,25.21,64.64,77.95,85,83,12.39,broken clouds,0.0,0.0
385,Nacala,MZ,2020-04-19 20:01:06,-14.54,40.67,76.14,85,32,11.9,scattered clouds,0.0,0.0
386,Birao,CF,2020-04-19 20:01:07,10.28,22.79,84.25,12,36,1.92,scattered clouds,0.0,0.0
387,Iquique,CL,2020-04-19 20:01:07,-20.22,-70.14,71.6,56,15,16.11,few clouds,0.0,0.0
388,Sherman,US,2020-04-19 20:00:05,33.64,-96.61,66.99,88,90,5.82,overcast clouds,0.0,0.0
389,Tafresh,IR,2020-04-19 20:01:07,34.69,50.01,53.49,37,31,2.21,light rain,0.15,0.0
390,Davila,PH,2020-04-19 20:01:07,18.47,120.58,79.97,79,92,4.83,overcast clouds,0.0,0.0
391,Atambua,ID,2020-04-19 20:01:07,-9.11,124.89,73.0,73,21,3.29,few clouds,0.0,0.0
392,Marsa Matruh,EG,2020-04-19 19:57:13,31.35,27.25,59.0,72,0,4.14,clear sky,0.0,0.0
393,Honiara,SB,2020-04-19 20:01:09,-9.43,159.95,75.2,94,20,3.36,few clouds,0.0,0.0
394,Pisco,PE,2020-04-19 20:01:09,-13.7,-76.22,75.99,69,0,12.75,clear sky,0.0,0.0
395,Taltal,CL,2020-04-19 20:01:09,-25.4,-70.48,68.9,61,0,4.23,clear sky,0.0,0.0
396,Rumoi,JP,2020-04-19 20:01:09,43.93,141.64,41.34,64,100,13.98,overcast clouds,0.0,0.0
397,Opuwo,NA,2020-04-19 20:01:10,-18.06,13.84,70.47,48,12,7.74,light rain,1.07,0.0
398,Renqiu,CN,2020-04-19 20:01:10,38.7,116.09,49.17,43,0,6.4,clear sky,0.0,0.0
399,Kushalgarh,IN,2020-04-19 20:01:10,23.2,74.45,80.38,25,100,5.73,overcast clouds,0.0,0.0
400,Sandnessjoen,NO,2020-04-19 20:01:10,66.02,12.63,41.0,93,75,6.93,broken clouds,0.0,0.0
401,Bairiki,KI,2020-04-19 20:01:10,1.33,172.98,78.8,94,40,3.36,shower rain,0.0,0.0
402,Camacha,PT,2020-04-19 20:01:11,33.08,-16.33,64.4,72,40,6.93,scattered clouds,0.0,0.0
403,Ahipara,NZ,2020-04-19 20:01:11,-35.17,173.17,61.97,88,100,7.4,light rain,0.29,0.0
404,Quatre Cocos,MU,2020-04-19 20:01:11,-20.21,57.76,77.0,78,40,10.29,scattered clouds,0.0,0.0
405,Mariental,NA,2020-04-19 20:01:11,-24.63,17.97,78.15,26,32,10.45,scattered clouds,0.0,0.0
406,Coihaique,CL,2020-04-19 19:57:51,-45.58,-72.07,44.6,81,90,4.7,light rain,0.0,0.0
407,Sao Joao Da Barra,BR,2020-04-19 19:56:54,-21.64,-41.05,78.8,61,75,11.41,broken clouds,0.0,0.0
408,Paita,PE,2020-04-19 19:56:41,-5.09,-81.11,79.77,59,1,15.7,clear sky,0.0,0.0
409,Soyo,AO,2020-04-19 20:01:12,-6.13,12.37,80.42,82,93,3.02,overcast clouds,0.0,0.0
410,College,US,2020-04-19 20:01:12,64.86,-147.8,45.0,86,90,2.73,light rain,0.0,0.0
411,Bhuj,IN,2020-04-19 19:56:56,23.27,69.67,79.45,69,89,13.31,overcast clouds,0.0,0.0
412,Juneau,US,2020-04-19 20:01:13,58.3,-134.42,51.8,57,40,6.93,scattered clouds,0.0,0.0
413,Ridgecrest,US,2020-04-19 20:00:27,35.62,-117.67,72.0,39,1,9.57,clear sky,0.0,0.0
414,Saint-Michel-Des-Saints,CA,2020-04-19 20:01:14,46.68,-73.92,39.99,8,100,2.73,light rain,0.68,0.0
415,Kabinda,CD,2020-04-19 20:01:14,-6.13,24.48,68.83,77,95,2.08,moderate rain,3.11,0.0
416,Port Blair,IN,2020-04-19 20:01:16,11.67,92.75,83.35,76,6,4.81,clear sky,0.0,0.0
417,Jaen,ES,2020-04-19 20:01:16,38.0,-3.5,59.0,69,62,4.0,light rain,1.06,0.0
418,Mountain Home,US,2020-04-19 20:01:16,43.13,-115.69,62.6,29,1,17.22,clear sky,0.0,0.0
419,Presidencia Roque Saenz Pena,AR,2020-04-19 20:01:16,-26.79,-60.44,79.93,39,0,3.87,clear sky,0.0,0.0
420,Ibra,OM,2020-04-19 20:01:16,22.69,58.53,81.41,33,1,2.53,clear sky,0.0,0.0
421,Stony Mountain,CA,2020-04-19 20:01:16,50.09,-97.22,45.0,41,75,24.16,broken clouds,0.0,0.0
422,Ossora,RU,2020-04-19 20:01:16,59.24,163.07,18.68,90,99,11.27,overcast clouds,0.0,0.0
423,Saint-Georges,GD,2020-04-19 19:56:31,12.06,-61.75,86.0,66,20,19.46,few clouds,0.0,0.0
424,Okhotsk,RU,2020-04-19 20:01:17,59.38,143.3,9.1,84,5,11.59,clear sky,0.0,0.0
425,Windhoek,NA,2020-04-19 20:01:17,-22.56,17.08,70.0,64,89,6.93,overcast clouds,0.0,0.0
426,Aleksandrov Gay,RU,2020-04-19 20:01:17,50.15,48.57,46.51,56,100,6.89,overcast clouds,0.0,0.0
427,Bonavista,CA,2020-04-19 20:01:17,48.65,-53.11,31.3,98,100,38.56,snow,0.0,2.33
428,Bathsheba,BB,2020-04-19 19:56:39,13.22,-59.52,86.0,58,20,20.8,few clouds,0.0,0.0
429,Bose,IT,2020-04-19 20:01:17,45.46,8.01,59.0,93,100,2.73,light rain,0.79,0.0
430,Gat,IL,2020-04-19 19:57:33,31.61,34.76,69.01,16,1,11.36,clear sky,0.0,0.0
431,Chicama,PE,2020-04-19 20:01:18,-7.84,-79.15,73.4,73,19,10.29,few clouds,0.0,0.0
432,Mnogovershinnyy,RU,2020-04-19 20:00:51,53.94,139.92,19.83,95,100,8.46,light snow,0.0,1.11
433,Sijunjung,ID,2020-04-19 20:01:18,-0.69,100.95,73.29,81,54,0.89,light rain,0.16,0.0
434,Yerbogachen,RU,2020-04-19 20:01:18,61.28,108.01,14.92,92,0,2.64,clear sky,0.0,0.0
435,Melfi,IT,2020-04-19 20:01:19,41.0,15.65,60.8,87,75,4.7,broken clouds,0.0,0.0
436,Hirara,JP,2020-04-19 20:01:19,24.8,125.28,75.81,87,63,9.51,moderate rain,4.78,0.0
437,Korla,CN,2020-04-19 20:01:19,41.76,86.15,61.0,43,100,6.4,overcast clouds,0.0,0.0
438,Acajutla,SV,2020-04-19 20:01:19,13.59,-89.83,82.99,76,11,4.0,few clouds,0.0,0.0
439,Beloha,MG,2020-04-19 20:01:19,-25.17,45.05,72.59,72,0,19.28,clear sky,0.0,0.0
440,Mount Isa,AU,2020-04-19 20:01:19,-20.73,139.5,59.0,51,68,8.23,broken clouds,0.0,0.0
441,Tura,IN,2020-04-19 20:01:19,25.52,90.22,70.16,81,16,4.16,light rain,0.25,0.0
442,Beidao,CN,2020-04-19 20:01:19,34.57,105.89,53.53,32,95,5.64,overcast clouds,0.0,0.0
443,Puerto Ayacucho,VE,2020-04-19 20:01:20,5.66,-67.62,80.6,78,40,6.93,shower rain,0.0,0.0
444,Flinders,AU,2020-04-19 19:59:17,-34.58,150.86,55.99,93,100,1.01,overcast clouds,0.0,0.0
445,Chardara,KZ,2020-04-19 20:01:20,41.25,67.97,61.25,45,0,2.89,clear sky,0.0,0.0
446,Sambava,MG,2020-04-19 20:01:20,-14.27,50.17,74.35,89,29,7.58,light rain,0.85,0.0
447,Salama,HN,2020-04-19 20:01:20,14.83,-86.58,95.13,15,0,6.22,clear sky,0.0,0.0
448,Richards Bay,ZA,2020-04-19 20:01:20,-28.78,32.04,69.13,77,0,9.6,clear sky,0.0,0.0
449,Katangli,RU,2020-04-19 20:01:21,51.71,143.23,34.14,87,100,5.91,overcast clouds,0.0,0.0
450,Buraydah,SA,2020-04-19 20:01:21,26.33,43.98,77.0,47,40,12.75,scattered clouds,0.0,0.0
451,Paray-Le-Monial,FR,2020-04-19 20:01:21,46.45,4.12,59.0,82,100,3.11,light rain,0.0,0.0
452,Santiago Del Estero,AR,2020-04-19 20:01:21,-27.8,-64.26,83.46,37,0,7.7,clear sky,0.0,0.0
453,Angoche,MZ,2020-04-19 20:01:22,-16.23,39.91,75.38,87,20,8.52,few clouds,0.0,0.0
454,Paoua,CF,2020-04-19 20:01:22,7.24,16.44,77.81,56,86,8.77,overcast clouds,0.0,0.0
455,San Policarpo,PH,2020-04-19 20:01:22,12.18,125.51,81.63,84,90,14.05,light rain,0.12,0.0
456,Nemuro,JP,2020-04-19 20:01:23,43.32,145.57,37.99,83,91,12.33,overcast clouds,0.0,0.0
457,Atbasar,KZ,2020-04-19 20:01:24,51.8,68.33,51.71,66,79,0.92,broken clouds,0.0,0.0
458,Asau,RO,2020-04-19 20:01:24,46.43,26.4,48.2,93,75,5.82,light rain,0.0,0.0
459,Poum,NC,2020-04-19 20:01:24,-20.23,164.02,80.04,78,99,11.25,light rain,1.77,0.0
460,Tungor,RU,2020-04-19 20:01:24,53.38,142.96,29.35,98,100,12.46,light snow,0.0,0.44
461,Verkh-Usugli,RU,2020-04-19 19:57:13,52.7,115.17,14.81,73,97,7.45,overcast clouds,0.0,0.0
462,Bratsk,RU,2020-04-19 20:01:25,56.13,101.61,23.0,41,0,4.47,clear sky,0.0,0.0
463,Serra Branca,BR,2020-04-19 20:01:25,-6.53,-38.27,76.77,65,60,2.64,broken clouds,0.0,0.0
464,Sakaiminato,JP,2020-04-19 20:01:26,35.55,133.23,55.4,87,75,2.24,light intensity shower rain,0.0,0.0
465,Ciudad Guayana,VE,2020-04-19 19:59:26,8.35,-62.65,90.79,39,95,5.99,overcast clouds,0.0,0.0
466,Awjilah,LY,2020-04-19 20:01:26,29.11,21.29,72.12,22,35,5.32,scattered clouds,0.0,0.0
467,Pudozh,RU,2020-04-19 20:01:26,61.81,36.53,30.7,98,84,2.95,broken clouds,0.0,0.0
468,Arman,RU,2020-04-19 20:00:53,59.7,150.17,4.1,84,0,8.34,clear sky,0.0,0.0
469,Mihara,JP,2020-04-19 20:01:27,34.4,133.08,55.99,94,95,1.77,light rain,1.33,0.0
470,Ta Khmau,KH,2020-04-19 20:01:27,11.48,104.95,84.2,74,40,9.17,scattered clouds,0.0,0.0
471,Iracoubo,GF,2020-04-19 20:01:27,5.48,-53.2,80.08,82,99,13.49,light rain,2.15,0.0
472,El Puerto De Santa Maria,ES,2020-04-19 20:01:27,36.59,-6.23,64.99,77,0,13.87,clear sky,0.0,0.0
473,Pedernales,DO,2020-04-19 20:01:27,18.04,-71.74,86.11,50,15,6.82,few clouds,0.0,0.0
474,Nakhon Ratchasima,TH,2020-04-19 20:01:28,14.97,102.1,79.68,74,85,4.92,overcast clouds,0.0,0.0
475,Sokoto,NG,2020-04-19 20:01:28,13.06,5.24,90.3,19,65,2.93,broken clouds,0.0,0.0
476,Suclayin,PH,2020-04-19 20:01:29,15.76,121.55,77.58,79,83,0.83,broken clouds,0.0,0.0
477,Gezing,AT,2020-04-19 20:01:29,47.92,13.13,55.4,71,75,12.75,broken clouds,0.0,0.0
478,Miri,MY,2020-04-19 20:01:29,4.41,114.01,78.8,100,75,3.27,broken clouds,0.0,0.0
479,Ostrovnoy,RU,2020-04-19 20:01:30,68.05,39.51,27.81,95,92,8.9,overcast clouds,0.0,0.0
480,Neuquen,AR,2020-04-19 20:01:30,-38.95,-68.06,75.2,29,98,10.18,overcast clouds,0.0,0.0
481,Namibe,AO,2020-04-19 20:01:30,-15.2,12.15,75.06,63,5,7.07,light rain,0.22,0.0
482,Ambilobe,MG,2020-04-19 20:01:31,-13.2,49.05,73.31,88,41,4.29,scattered clouds,0.0,0.0
483,Cayenne,GF,2020-04-19 20:01:31,4.93,-52.33,84.2,74,20,11.41,few clouds,0.0,0.0
484,Melilla,ES,2020-04-19 20:01:31,35.29,-2.94,64.4,68,62,19.46,broken clouds,0.0,0.0
485,Santa Catarina De Tepehuanes,MX,2020-04-19 20:01:31,25.35,-105.73,80.78,8,62,21.09,broken clouds,0.0,0.0
486,Aloleng,PH,2020-04-19 20:01:31,16.13,119.78,81.41,79,100,5.46,overcast clouds,0.0,0.0
487,Khandyga,RU,2020-04-19 20:01:32,62.67,135.6,1.49,87,0,3.24,clear sky,0.0,0.0
488,Mormugao,IN,2020-04-19 20:01:32,15.4,73.8,80.73,85,65,0.31,broken clouds,0.0,0.0
489,Bereda,ES,2020-04-19 20:01:32,43.27,-7.54,53.01,91,43,7.0,scattered clouds,0.0,0.0
490,Wewak,PG,2020-04-19 20:01:32,-3.55,143.63,80.2,79,78,0.16,broken clouds,0.0,0.0
491,Bakel,SN,2020-04-19 20:01:32,14.9,-12.46,91.69,13,59,10.87,broken clouds,0.0,0.0
492,Kandalaksha,RU,2020-04-19 20:01:32,67.16,32.41,32.34,95,89,6.4,overcast clouds,0.0,0.0
493,Kamenka,RU,2020-04-19 20:01:33,51.32,42.77,36.0,76,36,4.99,scattered clouds,0.0,0.0
494,Bakaly,RU,2020-04-19 20:01:33,55.18,53.8,39.58,68,50,2.77,scattered clouds,0.0,0.0
495,Chokurdakh,RU,2020-04-19 20:00:43,70.63,147.92,6.67,94,94,10.47,overcast clouds,0.0,0.0
496,Lac Du Bonnet,CA,2020-04-19 20:01:33,50.25,-96.06,45.0,42,100,13.0,overcast clouds,0.0,0.0
497,Santa Isabel,BR,2020-04-19 20:01:07,-23.32,-46.22,75.2,64,40,9.17,scattered clouds,0.0,0.0
498,Wokha,IN,2020-04-19 20:01:34,26.1,94.27,51.3,70,25,1.77,light rain,0.74,0.0
499,Fershampenuaz,RU,2020-04-19 20:01:34,53.52,59.81,41.07,64,76,3.47,broken clouds,0.0,0.0
500,Kedrovyy,RU,2020-04-19 20:01:35,56.17,91.82,32.0,72,0,6.71,clear sky,0.0,0.0
501,Sao Desiderio,BR,2020-04-19 20:01:35,-12.36,-44.97,74.16,77,62,3.96,light rain,1.54,0.0
502,Eidfjord,NO,2020-04-19 20:01:35,60.47,7.07,40.12,66,0,3.53,clear sky,0.0,0.0
503,Bizhbulyak,RU,2020-04-19 20:01:36,53.7,54.26,39.7,66,97,4.07,overcast clouds,0.0,0.0
504,Tanuma,JP,2020-04-19 20:01:36,36.37,139.58,48.99,90,100,4.0,light rain,0.41,0.0
505,Otjiwarongo,NA,2020-04-19 20:01:36,-20.46,16.65,69.8,56,3,2.24,clear sky,0.0,0.0
506,Sassandra,CI,2020-04-19 20:01:36,4.95,-6.08,81.16,86,95,7.2,overcast clouds,0.0,0.0
507,Kashi,CN,2020-04-19 20:01:36,39.45,75.98,53.6,71,75,8.95,broken clouds,0.0,0.0
508,Eirunepe,BR,2020-04-19 20:01:37,-6.66,-69.87,87.55,47,52,3.0,broken clouds,0.0,0.0
509,Freeport,US,2020-04-19 20:00:01,40.66,-73.58,57.99,54,1,24.16,clear sky,0.0,0.0
510,Caldwell,US,2020-04-19 20:01:38,43.66,-116.69,64.4,33,1,12.75,clear sky,0.0,0.0
511,Orebro,SE,2020-04-19 20:01:39,59.27,15.21,50.0,66,81,5.82,broken clouds,0.0,0.0
512,Abbeville,FR,2020-04-19 20:01:39,50.1,1.83,54.0,71,76,9.17,broken clouds,0.0,0.0
513,Seidu,SL,2020-04-19 20:01:40,9.02,-10.6,77.36,59,58,4.0,broken clouds,0.0,0.0
514,Carbonia,IT,2020-04-19 20:01:40,39.17,8.52,64.99,88,75,6.93,broken clouds,0.0,0.0
515,Sorland,NO,2020-04-19 19:57:45,67.67,12.69,40.42,92,100,17.22,overcast clouds,0.0,0.0
516,Lata,PT,2020-04-19 20:01:40,40.16,-8.33,59.0,80,21,3.0,few clouds,0.0,0.0
517,Sibu,MY,2020-04-19 20:01:40,2.3,111.82,78.8,94,75,0.6,broken clouds,0.0,0.0
518,Shimoda,JP,2020-04-19 20:01:40,34.67,138.95,50.0,92,100,1.99,light rain,1.36,0.0
519,Ust-Karsk,RU,2020-04-19 20:01:41,52.7,118.81,18.55,80,75,9.93,broken clouds,0.0,0.0
520,Contesti,RO,2020-04-19 20:01:41,43.8,25.48,60.01,70,70,1.01,light rain,0.77,0.0
521,Bria,CF,2020-04-19 20:01:41,6.54,21.99,77.49,58,99,7.61,overcast clouds,0.0,0.0
522,Saurimo,AO,2020-04-19 20:01:41,-9.66,20.39,66.69,70,100,1.32,moderate rain,4.19,0.0
523,Burrel,AL,2020-04-19 20:01:42,41.61,20.01,60.8,77,75,1.12,broken clouds,0.0,0.0
524,Yenagoa,NG,2020-04-19 20:01:30,4.92,6.26,75.85,90,100,2.26,overcast clouds,0.0,0.0
525,Saint-Leu,RE,2020-04-19 20:01:46,-21.15,55.28,77.0,73,20,16.11,few clouds,0.0,0.0
526,Peleduy,RU,2020-04-19 20:01:46,59.63,112.74,13.12,92,52,1.9,broken clouds,0.0,0.0
527,Adrar,MR,2020-04-19 20:01:46,20.5,-10.07,79.21,16,0,7.43,clear sky,0.0,0.0
528,Mitsamiouli,KM,2020-04-19 20:01:47,-11.38,43.28,83.07,74,79,17.81,broken clouds,0.0,0.0
529,Mainit,PH,2020-04-19 20:01:47,9.54,125.52,78.44,80,100,4.0,light rain,0.16,0.0
530,Udachnyy,RU,2020-04-19 20:01:48,66.42,112.4,19.4,44,0,4.47,clear sky,0.0,0.0
531,Kavieng,PG,2020-04-19 20:01:48,-2.57,150.8,83.5,71,49,3.67,scattered clouds,0.0,0.0
532,Talnakh,RU,2020-04-19 20:01:48,69.49,88.4,39.2,69,100,29.08,overcast clouds,0.0,0.0
533,Cuamba,MZ,2020-04-19 20:01:48,-14.8,36.54,66.2,76,1,6.73,clear sky,0.0,0.0
534,Aswan,EG,2020-04-19 19:57:47,24.09,32.91,74.32,25,0,10.96,clear sky,0.0,0.0
535,Najran,SA,2020-04-19 20:01:49,17.49,44.13,75.2,57,40,4.7,scattered clouds,0.0,0.0
536,Kurchum,KZ,2020-04-19 20:01:49,48.57,83.65,46.69,46,0,7.72,clear sky,0.0,0.0
537,Tokmak,UA,2020-04-19 20:01:49,47.25,35.71,49.51,68,100,3.69,overcast clouds,0.0,0.0
538,Santa Cruz,BO,2020-04-19 20:00:03,-17.8,-63.17,93.2,30,20,2.24,few clouds,0.0,0.0
539,Pundaguitan,PH,2020-04-19 20:01:49,6.37,126.17,82.11,80,99,9.8,light rain,0.18,0.0
540,Dingle,PH,2020-04-19 20:01:50,11.0,122.67,79.23,86,78,9.95,light rain,0.27,0.0
541,Straumen,NO,2020-04-19 20:01:50,63.87,11.3,46.4,70,40,11.41,scattered clouds,0.0,0.0
542,Kolokani,ML,2020-04-19 20:01:50,13.57,-8.03,94.39,22,45,6.96,scattered clouds,0.0,0.0
543,Rio Gallegos,AR,2020-04-19 20:01:50,-51.62,-69.22,50.0,66,40,35.57,scattered clouds,0.0,0.0
544,Te Anau,NZ,2020-04-19 20:01:50,-45.42,167.72,47.3,64,53,6.08,broken clouds,0.0,0.0
545,Mpulungu,ZM,2020-04-19 20:01:51,-8.76,31.11,72.77,58,43,8.95,light rain,1.06,0.0
546,Yeppoon,AU,2020-04-19 20:01:51,-23.13,150.73,71.6,94,75,5.82,broken clouds,0.0,0.0
547,Victoria Point,AU,2020-04-19 20:01:51,-27.58,153.3,63.0,71,0,9.73,clear sky,0.0,0.0
548,Havoysund,NO,2020-04-19 20:01:51,71.0,24.66,39.2,86,75,20.8,broken clouds,0.0,0.0
549,Mount Vernon,US,2020-04-19 20:00:24,40.91,-73.84,64.0,29,20,18.34,few clouds,0.0,0.0
550,Novobirilyussy,RU,2020-04-19 20:01:52,56.95,90.67,35.24,70,0,10.04,clear sky,0.0,0.0
551,Marystown,CA,2020-04-19 20:01:05,47.17,-55.15,37.63,94,100,30.06,moderate rain,9.37,0.0
552,Ouesso,CG,2020-04-19 20:01:52,1.61,16.05,72.93,86,77,1.41,broken clouds,0.0,0.0
553,Ewa Beach,US,2020-04-19 20:01:53,21.32,-158.01,78.8,65,40,4.7,scattered clouds,0.0,0.0
554,Ubinskoye,RU,2020-04-19 20:01:53,55.31,79.68,44.38,69,49,5.06,scattered clouds,0.0,0.0
555,Skala,PL,2020-04-19 20:01:53,50.23,19.85,44.6,33,0,6.93,clear sky,0.0,0.0
556,Haverfordwest,GB,2020-04-19 20:01:53,51.8,-4.97,55.4,66,70,3.36,broken clouds,0.0,0.0
557,Pochutla,MX,2020-04-19 20:01:54,15.74,-96.47,91.99,49,5,23.04,clear sky,0.0,0.0
558,Acarau,BR,2020-04-19 20:01:54,-2.89,-40.12,78.73,85,20,5.23,light rain,1.39,0.0
559,Abalak,RU,2020-04-19 20:01:43,58.13,68.59,37.62,76,81,3.67,broken clouds,0.0,0.0
560,Yining,CN,2020-04-19 20:01:54,29.04,114.56,54.54,83,6,1.61,clear sky,0.0,0.0
561,Valdivia,CL,2020-04-19 20:01:54,-39.81,-73.25,62.6,67,90,6.93,overcast clouds,0.0,0.0
562,Kamina,CD,2020-04-19 20:01:55,-8.74,24.99,65.37,69,100,3.74,light rain,2.17,0.0
563,Suntar,RU,2020-04-19 20:01:55,62.14,117.63,13.03,95,5,3.71,clear sky,0.0,0.0
564,Bara,NG,2020-04-19 20:01:55,10.37,10.73,89.42,11,36,3.6,scattered clouds,0.0,0.0
565,Urumqi,CN,2020-04-19 20:01:56,43.8,87.6,57.2,41,7,4.47,clear sky,0.0,0.0
566,Manggar,ID,2020-04-19 20:01:56,-2.88,108.27,81.19,78,43,1.41,scattered clouds,0.0,0.0
567,Cedar City,US,2020-04-19 19:57:13,37.68,-113.06,68.0,34,75,10.29,broken clouds,0.0,0.0
568,Puerto Baquerizo Moreno,EC,2020-04-19 20:01:56,-0.9,-89.6,77.92,84,59,12.64,broken clouds,0.0,0.0
569,Shangrao,CN,2020-04-19 20:01:56,28.45,117.97,54.95,86,0,2.3,clear sky,0.0,0.0
570,Wuan,CN,2020-04-19 20:01:57,31.68,112.0,60.62,73,96,1.77,overcast clouds,0.0,0.0
571,Comal,US,2020-04-19 20:01:57,29.82,-98.3,90.0,30,0,10.0,clear sky,0.0,0.0
572,Colesberg,ZA,2020-04-19 20:01:57,-30.72,25.1,68.77,30,64,6.2,broken clouds,0.0,0.0
573,Buenaventura,CO,2020-04-19 20:01:57,3.88,-77.03,83.41,75,95,4.0,light rain,2.92,0.0
574,Thinadhoo,MV,2020-04-19 20:00:35,0.53,72.93,84.51,76,90,11.18,overcast clouds,0.0,0.0
575,Port Lincoln,AU,2020-04-19 20:01:58,-34.73,135.87,61.27,65,100,17.22,overcast clouds,0.0,0.0
576,Mpika,ZM,2020-04-19 20:01:59,-11.83,31.45,61.0,62,60,7.72,light rain,0.13,0.0
577,Xihe,CN,2020-04-19 20:01:59,31.69,113.47,54.5,77,34,1.05,scattered clouds,0.0,0.0
578,Sarangani,PH,2020-04-19 20:01:59,5.4,125.46,83.39,78,92,14.36,light rain,1.04,0.0
